<?xml version="1.0" encoding="UTF-8" ?>
<tiendas>
<informacion id="262">
<tienda id="262">
<nombre>Americas</nombre>
<direccion>11 Calle 15-01, zona 13</direccion>
<lat>14.586626</lat><longi>-90.521539</longi>
<horario>Lunes,Miercoles, Jueves y Viernes 7:00am a 9:00pm, Martes a Sábado 7:00am a 8:30pm, Domingo 8:00am a 8:30pm</horario>
<telefono><a href="tel:+50224859595">(502)2485-9595</a></telefono>
<imagenes>icofarmacia.png,iconopagoluz.png,iconoExpress.png,iconoRemesa.png,iconocafe.png,iconocajero.png</imagenes>
</tienda>
</informacion>
<informacion id="261">
<tienda id="261">
<nombre>Pradera</nombre>
<direccion>20 Calle 25-85, zona 10</direccion>
<lat>14.579908</lat><longi>-90.495946</longi>
<horario>Lunes a Domingo 8:00am a 9:00pm</horario>
<telefono><a href="tel:+50224859675">(502)2485-9675</a></telefono>
<imagenes>icofarmacia.png,iconoExpress.png,iconoRemesa.png,iconocafe.png,iconocajero.png</imagenes>
</tienda>
</informacion>
<informacion id="264">
<tienda id="264">
<nombre>San Cristobal</nombre>
<direccion>Local 104 C. C. Plaza San Cristóbal,</direccion>
<lat>14.602869</lat><longi>-90.581256</longi>
<horario>Lunes a Domingo 8:00am a 9:00pm</horario>
<telefono><a href="tel:+5024859615">(502)2485-9615</a></telefono>
<imagenes>icofarmacia.png,iconopagoluz.png,iconoExpress.png,iconoRemesa.png,iconocajero.png</imagenes>

</tienda>
</informacion>
<informacion id="265">
<tienda id="265">
<nombre>Montufar</nombre>
<direccion>12 Calle 0-93, zona 9</direccion>
<lat>14.603757</lat><longi>-90.525858</longi>
<horario>Lunes a Jueves 7:30am a 8:30pm, Viernes 7:30am a 9:00pm, Sábado 8:00am a 9:00pm, Domingo 8:00am a 8:30pm</horario>
<telefono><a href="tel:+5024859512">(502)2485-9512</a>o<a href="tel:+5024859525">(502) 24859525</a></telefono>
<imagenes>icofarmacia.png,iconoExpress.png,iconoOptico.png,iconoRemesa.png,iconocafe.png,iconocajero.png</imagenes>
</tienda>
</informacion>
<informacion id="267">
<tienda id="267">
<nombre>Novicentro</nombre>
<direccion>17 Av. 26-75, zona 11</direccion>
<lat>14.602345</lat><longi>-90.562309</longi>
<horario>Lunes a Domingo 8:00am a 9:00pm</horario>
<telefono><a href="tel:+50224859555">(502)2485-9555</a>o<a href="tel:+50224859557">(502)24859557</a></telefono>
<imagenes>iconoExpress.png,iconoRemesa.png,iconocajero.png</imagenes>
</tienda>
</informacion>
<informacion id="270">
<tienda id="270">
<nombre>Megacentro</nombre>
<direccion>Local 1, 4 y 5, C. C. Megacentro, Calz. Roosevelt 29-60, zona 7</direccion>
<lat>14.625585</lat><longi>-90.555094</longi>
<horario>Lunes a Domingo 8:00am a 9:00pm</horario>
<telefono><a href="tel:+50224859645">(502)2485-9645</a>o<a href="tel:+50224859631">(502)2485-9631</a>o<a href="tel:+50224859632">(502)2485-9632</a>o
<a href="tel:+50224859635">(Express)(502)2485-9635</a></telefono>
<imagenes>icofarmacia.png,iconopagoluz.png,iconoExpress.png,iconoOptico.png,iconoRemesa.png,iconocajero.png</imagenes>
</tienda>
</informacion>
<informacion id="271">
<tienda id="271">
<nombre>Asunción</nombre>
<direccion>DIAG. 14, 20-55, Z. 5 COL. ARRIVILLAGA</direccion>
<lat>14.626197</lat><longi>-90.496075</longi>
<horario>Lunes a Domingo 8:30am a 9:00pm</horario>
<telefono><a href="tel:+50224859565">(502)2485-9565</a>o<a href="tel:+50224859570"> (Express)(502)2485-9570</a></telefono>
<imagenes>icofarmacia.png,iconopagoluz.png,iconoExpress.png,iconoRemesa.png,iconocafe.png,iconocajero.png</imagenes>
</tienda>
</informacion>
<informacion id="272">
<tienda id="272">
<nombre>Salida al Pacifico</nombre>
<direccion>Calzada Aguilar Batres 32-00 Zona 11</direccion>
<lat>14.606236</lat><longi>-90.544735</longi>
<horario>Lunes a Domingo 8:00am a 9:00pm</horario>
<telefono><a href="tel:+50224859882">(502)2485-9882</a></telefono>
<imagenes>icofarmacia.png,iconoExpress.png,iconoOptico.png,iconoRemesa.png,iconocajero.png</imagenes>
</tienda>
</informacion>
<informacion id="273">
<tienda id="273">
<nombre>Megaseis</nombre>
<direccion>15 Av. 16-11, zona 6</direccion>
<lat>14.661477</lat><longi>-90.495345</longi>
<horario>Lunes, Viernes y Sábado 8:30am a 9:00pm, Martes, a jueves 8:30am 8:30pm  Domingo 8:30am a 8:30pm</horario>
<telefono><a href="tel:+5022485965">(502)2485-9655</a></telefono>
<imagenes></imagenes>
</tienda>
</informacion>
<informacion id="274">
<tienda id="274">
<nombre>Petapa</nombre>
<direccion>Av. Petapa y 35 calle Zona  12</direccion>
<lat>14.583524</lat><longi>-90.546691</longi>
<horario>Lunes a Domingos 8:30am a 9:00pm</horario>
<telefono><a href="tel:+50224859625">(502)2485-9625</a></telefono>
<imagenes>icofarmacia.png,iconopagoluz.png,iconoExpress.png,iconoOptico.png,iconoRemesa.png,iconocajero.png</imagenes>
</tienda>
</informacion>
<informacion id="275">
<tienda id="275">
<nombre>Utatlan</nombre>
<direccion>2a. Calle A, Utatlán II, 32-25, zona 11</direccion>
<lat>14.593904</lat><longi>-90.559402</longi>
<horario>Lunes a Domingo 8:00am a 8:30pm</horario>
<telefono><a href="tel:+50224859500">(502)2485-9500</a>o<a href="tel:+50224859502">(502)2485-9502</a>o<a href="tel:+50224859610">(Express)(502)2485-9610</a></telefono>
<imagenes>iconopagoluz.png,iconoExpress.png,iconoOptico.png,iconoRemesa.png,iconocajero.png</imagenes>
</tienda>
</informacion>
<informacion id="276">
<tienda id="276">
<nombre>Montserrat</nombre>
<direccion>Local 90, C. C. Montserrat, zona 4,  Mixco</direccion>
<lat>14.642129</lat><longi>-9.056796</longi>
<horario>Lunes a domingo 9:00am a 9:00pm</horario>
<telefono><a href="tel:+50224859715">(502)2485-9715</a>o<a href="tel:+50224859710">(Express)(502)2485-9710</a></telefono>
<imagenes></imagenes>
</tienda>
</informacion>
<informacion id="277">
<tienda id="277">
<nombre>Parroquia</nombre>
<direccion>Calz. J. M. y Vidaurre 16-80,  Zona.  6</direccion>
<lat>14.650057</lat><longi>-90.497287</longi>
<horario>Lunes a domingo 8:30am a 9:00pm</horario>
<telefono><a href="tel:+50224859575">(502)2485-9575</a>o<a href="tel:+50224859577">(Express)(502)2485-9577</a></telefono>
<imagenes>iconopagoluz.png,iconoExpress.png,iconoOptico.png,iconoRemesa.png,iconocajero.png</imagenes>
</tienda>
</informacion>
<informacion id="278">
<tienda id="278">
<nombre>18 Calle</nombre>
<direccion>18 Calle 6-85, zona 1</direccion>
<lat>14.631037</lat><longi>-90.514169</longi>
<horario>Lunes a Domingo 8:00am a 8:00pm</horario>
<telefono><a href="tel:+50224859695">(502)2485-9695</a></telefono>
<imagenes>iconopagoluz.png,iconoExpress.png,iconoRemesa.png,iconocajero.png</imagenes>
</tienda>
</informacion>
<informacion id="279">
<tienda id="279">
<nombre>Aguilar Batres</nombre>
<direccion>Calz. Ag. Batres y 13 calle z 11</direccion>
<lat>1.460628</lat><longi>-90.544738</longi>
<horario>Lunes a Domingo 8:00am a 9:00pm</horario>
<telefono><a href="tel:+50224859525">(502)2485-9525</a></telefono>
<imagenes>iconosalondeBelleza.png,iconoExpress.png,iconoRemesa.png,iconocajero.png</imagenes>
</tienda>
</informacion>
<informacion id="282">
<tienda id="282">
<nombre>El Naranjo</nombre>
<direccion>14 avenida condado El naranjo 9-20 zona 4 de mixco</direccion>
<lat>14.654728</lat><longi>-90.540272</longi>
<horario>Lunes a Viernes 8:30am a 9:00pm, Sábado y Domingo 8:00am a 9:00pm</horario>
<telefono><a href="tel:+50224196161">(502)2419-6161</a>o
<a href="tel:+50224196162">(502)2419-6162</a>o
<a href="tel:+50224196262">(Express)(502)24196262</a></telefono>
<imagenes>icofarmacia.png,iconopagoluz.png,iconoExpress.png,iconoOptico.png,iconoRemesa.png,iconocajero.png</imagenes>
</tienda>
</informacion>
<informacion id="283">
<tienda id="283">
<nombre>Montblac</nombre>
<direccion>Local 72, C.C. Mont Blanc 4a. Calle 18-01, zona  3, Quetz.</direccion>
<lat>1.484375</lat><longi>-91.522797</longi>
<horario>Lunes a Jueves 8:00am a 8:30pm, Viernes y Sábado 8:00am a 9.00pm, Domingo 8:30am a 9.00pm</horario>
<telefono><a href="tel:+50277654895">(502)7765-4895</a></telefono>
<imagenes></imagenes>
</tienda>
</informacion>
<informacion id="284">
<tienda id="284">
<nombre>Huehuetenango</nombre>
<direccion>Locales 23 y 41, C. C. El Triángulo 9a. AV. 6-132, Zona 1</direccion>
<lat>15.317088</lat><longi>-91.474459</longi>
<horario>Lunes a Viernes 8:30am a 9:00pm, Sábado y Domingo 8:00am a 9:00pm</horario>
<telefono><a href="tel:+50277682340">(502)7768-2340</a>o
<a href="tel:+50277640375">(502)7764-0375 </a>o
<a href="tel:+50277640376">(502)7764-0376</a>o
<a href="tel:+50277682345">(502)7768-2345</a></telefono>
<imagenes>icofarmacia.png,iconoRemesa.png,iconocajero.png</imagenes>

</tienda>
</informacion>
<informacion id="285">
<tienda id="285">
<nombre>Mazatenango</nombre>
<direccion>KM. 158, Carr. A Mazatenango, C. C. Plaza Américas</direccion>
<lat>1.453458</lat><longi>-91.492483</longi>
<horario>Lunes a Viernes 8:30am a 9:00pm, Sábado y Domingo 8:00am a 9:00pm</horario>
<telefono><a href="tel:+50278722108">(502)7872-2108</a>o
<a href="tel:+50278720699">(Express)(502)7872-0699</a></telefono>
<imagenes>icofarmacia.png,iconoExpress.png,iconoOptico.png,iconoRemesa.png,iconocajero.png</imagenes>
</tienda>
</informacion>
<informacion id="286">
<tienda id="286">
<nombre>Costa Grande</nombre>
<direccion>4a. Av. Norte, 3-61, Zona 2</direccion>
<lat>14.309605</lat><longi>-90.783527</longi>
<horario>Lunes a Viernes 9.00am a 9.00pm, Sábado y Domingo 8:00am a 9:00pm</horario>
<telefono><a href="tel:+50278897209">(502)7889-7209</a>o
<a href="tel:+50278893087">(502)7889-3087</a></telefono>
<imagenes>icofarmacia.png,iconopagoluz.png,iconoExpress.png,iconoRemesa.png,iconocajero.png</imagenes>
</tienda>
</informacion>
<informacion id="289">
<tienda id="289">
<nombre>Chiquimula</nombre>
<direccion>3a. Calle y 7a. Av. Esquina  Zona 1, Chiquimula</direccion>
<lat>14.801161</lat><longi>-89.545583</longi>
<horario>Lunes a Domingo 8:00am a 9:00pm</horario>
<telefono><a href="tel:+50279426235">(502)7942-6235</a></telefono>
<imagenes>iconopagoluz.png,iconoExpress.png,iconoRemesa.png,iconocajero.png</imagenes>
</tienda>
</informacion>
<informacion id="290">
<tienda id="290">
<nombre>Cóban</nombre>
<direccion>Local 52, CC Plaza Magdalena</direccion>
<lat>1.546978</lat><longi>-90.385299</longi>
<horario>Lunes a sabado 8:30am a 9:30pm, Domingo 8:30 a 9:00pm</horario>
<telefono><a href="tel:+50279514554">(502)7951-4554</a>o<a href="tel:+50279514554">(Express)(502)7951-4554</a> Servicio al Cliente
<a href="tel:+50279514550">(502)7951-4550</a><a href="tel:+5021951-4547">(502)1951-4547</a></telefono>
<imagenes>icofarmacia.png,iconoRemesa.png,iconocajero.png</imagenes>
</tienda>
</informacion>
</tiendas>  